[
  {
    "bordering_countries": [],
    "continent": "North America",
    "country_center": { "latitude": 18.220833, "longitude": -66.590149 },
    "hemisphere": "Northern Hemisphere",
    "largest_cities": [
      { "latitude": 18.4663, "longitude": -66.1057, "name": "San Juan" },
      { "latitude": 18.3987, "longitude": -66.1557, "name": "Bayamón" },
      { "latitude": 18.4081, "longitude": -65.9678, "name": "Carolina" }
    ],
    "name": "Puerto Rico"
  },
  {
    "bordering_countries": ["Argentina", "Brazil", "Chile", "Paraguay", "Peru"],
    "continent": "South America",
    "country_center": { "latitude": -16.290154, "longitude": -63.588653 },
    "hemisphere": "Southern Hemisphere",
    "largest_cities": [
      {
        "latitude": -17.7834,
        "longitude": -63.1804,
        "name": "Santa Cruz de la Sierra"
      },
      { "latitude": -16.4942, "longitude": -68.1475, "name": "El Alto" },
      { "latitude": -16.5007, "longitude": -68.1358, "name": "La Paz" }
    ],
    "name": "Bolivia"
  },
  {
    "bordering_countries": [
      "Austria",
      "Belgium",
      "Czech Republic",
      "Denmark",
      "France",
      "Luxembourg",
      "Netherlands",
      "Poland",
      "Switzerland"
    ],
    "continent": "Europe",
    "country_center": { "latitude": 51.165691, "longitude": 10.451526 },
    "hemisphere": "Northern Hemisphere",
    "largest_cities": [
      { "latitude": 52.52, "longitude": 13.405, "name": "Berlin" },
      { "latitude": 53.5511, "longitude": 9.9937, "name": "Hamburg" },
      { "latitude": 48.1351, "longitude": 11.582, "name": "Munich" }
    ],
    "name": "Germany"
  },
  {
    "bordering_countries": [
      "Burundi",
      "Democratic Republic of the Congo",
      "Tanzania",
      "Uganda"
    ],
    "continent": "Africa",
    "country_center": { "latitude": -1.940278, "longitude": 29.873888 },
    "hemisphere": "Southern Hemisphere",
    "largest_cities": [
      { "latitude": -1.9574, "longitude": 30.0935, "name": "Kigali" },
      { "latitude": -2.6043, "longitude": 29.7399, "name": "Butare" },
      { "latitude": -2.0744, "longitude": 29.7569, "name": "Gitarama" }
    ],
    "name": "Rwanda"
  },
  {
    "bordering_countries": [
      "Namibia",
      "Botswana",
      "Zimbabwe",
      "Mozambique",
      "Eswatini",
      "Lesotho"
    ],
    "continent": "Africa",
    "country_center": { "latitude": -30.559482, "longitude": 22.937506 },
    "hemisphere": "Southern Hemisphere",
    "largest_cities": [
      { "latitude": -26.2041, "longitude": 28.0473, "name": "Johannesburg" },
      { "latitude": -33.9249, "longitude": 18.4241, "name": "Cape Town" },
      { "latitude": -29.8587, "longitude": 31.0218, "name": "Durban" }
    ],
    "name": "South Africa"
  },
  {
    "bordering_countries": [],
    "continent": "Europe",
    "country_center": { "latitude": 64.963051, "longitude": -19.020835 },
    "hemisphere": "Northern Hemisphere",
    "largest_cities": [
      { "latitude": 64.1265, "longitude": -21.8174, "name": "Reykjavik" },
      { "latitude": 64.1067, "longitude": -21.9406, "name": "Kopavogur" },
      { "latitude": 64.0667, "longitude": -21.95, "name": "Hafnarfjordur" }
    ],
    "name": "Iceland"
  },
  {
    "bordering_countries": ["South Africa"],
    "continent": "Africa",
    "country_center": { "latitude": -29.609988, "longitude": 28.233608 },
    "hemisphere": "Southern Hemisphere",
    "largest_cities": [
      { "latitude": -29.31, "longitude": 27.48, "name": "Maseru" },
      { "latitude": -29.8225, "longitude": 27.2373, "name": "Mafeteng" },
      { "latitude": -28.878, "longitude": 28.0439, "name": "Hlotse" }
    ],
    "name": "Lesotho"
  },
  {
    "bordering_countries": ["Colombia", "Peru"],
    "continent": "South America",
    "country_center": { "latitude": -1.831239, "longitude": -78.183406 },
    "hemisphere": "Southern Hemisphere",
    "largest_cities": [
      { "latitude": -2.1709, "longitude": -79.9224, "name": "Guayaquil" },
      { "latitude": -0.1807, "longitude": -78.4678, "name": "Quito" },
      { "latitude": -2.9001, "longitude": -79.0059, "name": "Cuenca" }
    ],
    "name": "Ecuador"
  },
  {
    "bordering_countries": [
      "Andorra",
      "Belgium",
      "Germany",
      "Italy",
      "Luxembourg",
      "Monaco",
      "Spain",
      "Switzerland"
    ],
    "continent": "Europe",
    "country_center": { "latitude": 46.227638, "longitude": 2.213749 },
    "hemisphere": "Northern Hemisphere",
    "largest_cities": [
      { "latitude": 48.8566, "longitude": 2.3522, "name": "Paris" },
      { "latitude": 43.2965, "longitude": 5.3698, "name": "Marseille" },
      { "latitude": 45.764, "longitude": 4.8357, "name": "Lyon" }
    ],
    "name": "France"
  },
  {
    "bordering_countries": [],
    "continent": "South America",
    "country_center": { "latitude": -51.796253, "longitude": -59.523613 },
    "hemisphere": "Southern Hemisphere",
    "largest_cities": [
      { "latitude": -51.7, "longitude": -57.85, "name": "Stanley" }
    ],
    "name": "Falkland Islands"
  },
  {
    "bordering_countries": [],
    "continent": "Asia",
    "country_center": { "latitude": 36.204824, "longitude": 138.252924 },
    "hemisphere": "Northern Hemisphere",
    "largest_cities": [
      { "latitude": 35.6895, "longitude": 139.6917, "name": "Tokyo" },
      { "latitude": 35.4437, "longitude": 139.638, "name": "Yokohama" },
      { "latitude": 34.6937, "longitude": 135.5023, "name": "Osaka" }
    ],
    "name": "Japan"
  },
  {
    "bordering_countries": [],
    "continent": "North America",
    "country_center": { "latitude": 32.321384, "longitude": -64.75737 },
    "hemisphere": "Northern Hemisphere",
    "largest_cities": [
      { "latitude": 32.2948, "longitude": -64.781, "name": "Hamilton" },
      { "latitude": 32.3834, "longitude": -64.6781, "name": "Saint George" }
    ],
    "name": "Bermuda"
  },
  {
    "bordering_countries": ["China", "India"],
    "continent": "Asia",
    "country_center": { "latitude": 27.514162, "longitude": 90.433601 },
    "hemisphere": "Northern Hemisphere",
    "largest_cities": [
      { "latitude": 27.4728, "longitude": 89.639, "name": "Thimphu" },
      { "latitude": 26.8517, "longitude": 89.3886, "name": "Phuntsholing" },
      { "latitude": 27.5919, "longitude": 89.8793, "name": "Punakha" }
    ],
    "name": "Bhutan"
  },
  {
    "bordering_countries": [],
    "continent": "Asia",
    "country_center": { "latitude": 22.396428, "longitude": 114.109497 },
    "hemisphere": "Northern Hemisphere",
    "largest_cities": [
      { "latitude": 22.3193, "longitude": 114.1694, "name": "Hong Kong" },
      { "latitude": 22.3186, "longitude": 114.1796, "name": "Kowloon" },
      { "latitude": 22.3714, "longitude": 114.1131, "name": "Tsuen Wan" }
    ],
    "name": "Hong Kong"
  },
  {
    "bordering_countries": ["Austria", "Germany", "Poland", "Slovakia"],
    "continent": "Europe",
    "country_center": { "latitude": 49.817492, "longitude": 15.472962 },
    "hemisphere": "Northern Hemisphere",
    "largest_cities": [
      { "latitude": 50.0755, "longitude": 14.4378, "name": "Prague" },
      { "latitude": 49.1951, "longitude": 16.6068, "name": "Brno" },
      { "latitude": 49.8209, "longitude": 18.2625, "name": "Ostrava" }
    ],
    "name": "Czech Republic"
  },
  {
    "bordering_countries": ["Estonia", "Russia", "Belarus", "Lithuania"],
    "continent": "Europe",
    "country_center": { "latitude": 56.879635, "longitude": 24.603189 },
    "hemisphere": "Northern Hemisphere",
    "largest_cities": [
      { "latitude": 56.9496, "longitude": 24.1052, "name": "Riga" },
      { "latitude": 55.8744, "longitude": 26.5366, "name": "Daugavpils" },
      { "latitude": 56.5102, "longitude": 21.0119, "name": "Liepāja" }
    ],
    "name": "Latvia"
  },
  {
    "bordering_countries": [
      "Bolivia",
      "Brazil",
      "Chile",
      "Colombia",
      "Ecuador"
    ],
    "continent": "South America",
    "country_center": { "latitude": -9.189967, "longitude": -75.015152 },
    "hemisphere": "Southern Hemisphere",
    "largest_cities": [
      { "latitude": -12.0432, "longitude": -77.0282, "name": "Lima" },
      { "latitude": -16.3989, "longitude": -71.535, "name": "Arequipa" },
      { "latitude": -8.115, "longitude": -79.0294, "name": "Trujillo" }
    ],
    "name": "Peru"
  },
  {
    "bordering_countries": ["Oman", "Saudi Arabia"],
    "continent": "Asia",
    "country_center": { "latitude": 23.424076, "longitude": 53.847818 },
    "hemisphere": "Northern Hemisphere",
    "largest_cities": [
      { "latitude": 25.2048, "longitude": 55.2708, "name": "Dubai" },
      { "latitude": 24.4539, "longitude": 54.3773, "name": "Abu Dhabi" }
    ],
    "name": "United Arab Emirates"
  },
  {
    "bordering_countries": [
      "Argentina",
      "Bolivia",
      "Colombia",
      "French Guiana",
      "Guyana",
      "Paraguay",
      "Peru",
      "Suriname",
      "Uruguay",
      "Venezuela"
    ],
    "continent": "South America",
    "country_center": { "latitude": -14.235004, "longitude": -51.92528 },
    "hemisphere": "Southern Hemisphere",
    "largest_cities": [
      { "latitude": -23.5505, "longitude": -46.6333, "name": "São Paulo" },
      { "latitude": -22.9068, "longitude": -43.1729, "name": "Rio de Janeiro" },
      { "latitude": -15.7942, "longitude": -47.8822, "name": "Brasília" }
    ],
    "name": "Brazil"
  },
  {
    "bordering_countries": ["Latvia", "Russia"],
    "continent": "Europe",
    "country_center": { "latitude": 58.595272, "longitude": 25.013607 },
    "hemisphere": "Northern Hemisphere",
    "largest_cities": [
      { "latitude": 59.4372, "longitude": 24.7453, "name": "Tallinn" },
      { "latitude": 58.3788, "longitude": 26.729, "name": "Tartu" },
      { "latitude": 59.3772, "longitude": 28.19, "name": "Narva" }
    ],
    "name": "Estonia"
  },
  {
    "bordering_countries": ["Brazil", "Ecuador", "Panama", "Peru", "Venezuela"],
    "continent": "South America",
    "country_center": { "latitude": 4.570868, "longitude": -74.297333 },
    "hemisphere": "Southern Hemisphere",
    "largest_cities": [
      { "latitude": 4.711, "longitude": -74.0721, "name": "Bogotá" },
      { "latitude": 6.2433, "longitude": -75.5736, "name": "Medellín" },
      { "latitude": 3.4516, "longitude": -76.532, "name": "Cali" }
    ],
    "name": "Colombia"
  },
  {
    "bordering_countries": ["Iraq", "Israel", "Saudi Arabia", "Syria"],
    "continent": "Asia",
    "country_center": { "latitude": 30.585164, "longitude": 36.238414 },
    "hemisphere": "Northern Hemisphere",
    "largest_cities": [
      { "latitude": 31.9566, "longitude": 35.9457, "name": "Amman" },
      { "latitude": 32.0536, "longitude": 36.0039, "name": "Zarqa" },
      { "latitude": 32.5567, "longitude": 35.8478, "name": "Irbid" }
    ],
    "name": "Jordan"
  },
  {
    "bordering_countries": [],
    "continent": "Africa",
    "country_center": { "latitude": -18.766947, "longitude": 46.869107 },
    "hemisphere": "Southern Hemisphere",
    "largest_cities": [
      { "latitude": -18.8792, "longitude": 47.5079, "name": "Antananarivo" },
      { "latitude": -18.1508, "longitude": 49.4028, "name": "Toamasina" },
      { "latitude": -19.8633, "longitude": 47.0333, "name": "Antsirabe" }
    ],
    "name": "Madagascar"
  },
  {
    "bordering_countries": ["Argentina", "Brazil"],
    "continent": "South America",
    "country_center": { "latitude": -32.522779, "longitude": -55.765835 },
    "hemisphere": "Southern Hemisphere",
    "largest_cities": [
      { "latitude": -34.9011, "longitude": -56.1645, "name": "Montevideo" },
      { "latitude": -31.3908, "longitude": -57.9639, "name": "Salto" },
      {
        "latitude": -34.8282,
        "longitude": -56.0376,
        "name": "Ciudad de la Costa"
      }
    ],
    "name": "Uruguay"
  },
  {
    "bordering_countries": [
      "Bulgaria",
      "Serbia",
      "Hungary",
      "Ukraine",
      "Moldova"
    ],
    "continent": "Europe",
    "country_center": { "latitude": 45.943161, "longitude": 24.96676 },
    "hemisphere": "Northern Hemisphere",
    "largest_cities": [
      { "latitude": 44.4268, "longitude": 26.1025, "name": "Bucharest" },
      { "latitude": 46.7712, "longitude": 23.6236, "name": "Cluj-Napoca" },
      { "latitude": 45.7489, "longitude": 21.2087, "name": "Timișoara" }
    ],
    "name": "Romania"
  },
  {
    "bordering_countries": ["Canada", "Mexico"],
    "continent": "North America",
    "country_center": { "latitude": 37.09024, "longitude": -95.712891 },
    "hemisphere": "Northern Hemisphere",
    "largest_cities": [
      { "latitude": 40.7128, "longitude": -74.006, "name": "New York City" },
      { "latitude": 34.0522, "longitude": -118.2437, "name": "Los Angeles" },
      { "latitude": 41.8781, "longitude": -87.6298, "name": "Chicago" },
      {
        "latitude": 38.9072,
        "longitude": -77.0369,
        "name": "Washington, D.C."
      },
      { "latitude": 29.7604, "longitude": -95.3698, "name": "Houston" },
      { "latitude": 33.4484, "longitude": -112.074, "name": "Phoenix" },
      { "latitude": 39.9526, "longitude": -75.1652, "name": "Philadelphia" },
      { "latitude": 25.7617, "longitude": -80.1918, "name": "Miami" },
      { "latitude": 32.7767, "longitude": -96.797, "name": "Dallas" },
      { "latitude": 37.7749, "longitude": -122.4194, "name": "San Francisco" },
      { "latitude": 42.3601, "longitude": -71.0589, "name": "Boston" }
    ],
    "name": "United States"
  },
  {
    "bordering_countries": ["Afghanistan", "Iran", "India", "China"],
    "continent": "Asia",
    "country_center": { "latitude": 30.375321, "longitude": 69.345116 },
    "hemisphere": "Northern Hemisphere",
    "largest_cities": [
      { "latitude": 24.8607, "longitude": 67.0011, "name": "Karachi" },
      { "latitude": 31.582, "longitude": 74.3294, "name": "Lahore" },
      { "latitude": 31.4504, "longitude": 73.135, "name": "Faisalabad" }
    ],
    "name": "Pakistan"
  },
  {
    "bordering_countries": [
      "Armenia",
      "Azerbaijan",
      "Bulgaria",
      "Georgia",
      "Greece",
      "Iran",
      "Iraq",
      "Syria"
    ],
    "continent": "Asia",
    "country_center": { "latitude": 38.963745, "longitude": 35.243322 },
    "hemisphere": "Northern Hemisphere",
    "largest_cities": [
      { "latitude": 41.0082, "longitude": 28.9784, "name": "Istanbul" },
      { "latitude": 39.9334, "longitude": 32.8597, "name": "Ankara" },
      { "latitude": 38.4237, "longitude": 27.1428, "name": "Izmir" }
    ],
    "name": "Turkey"
  },
  {
    "bordering_countries": [
      "Kenya",
      "Uganda",
      "Rwanda",
      "Burundi",
      "Democratic Republic of the Congo",
      "Zambia",
      "Malawi",
      "Mozambique"
    ],
    "continent": "Africa",
    "country_center": { "latitude": -6.369028, "longitude": 34.888822 },
    "hemisphere": "Southern Hemisphere",
    "largest_cities": [
      { "latitude": -6.7924, "longitude": 39.2083, "name": "Dar es Salaam" },
      { "latitude": -2.5146, "longitude": 32.909, "name": "Mwanza" },
      { "latitude": -3.386, "longitude": 36.6822, "name": "Arusha" }
    ],
    "name": "Tanzania"
  },
  {
    "bordering_countries": [],
    "continent": "Europe",
    "country_center": { "latitude": 61.892635, "longitude": -6.911806 },
    "hemisphere": "Northern Hemisphere",
    "largest_cities": [
      { "latitude": 62.0114, "longitude": -6.7769, "name": "Tórshavn" },
      { "latitude": 62.2333, "longitude": -6.5833, "name": "Klaksvík" },
      { "latitude": 62.0114, "longitude": -6.8208, "name": "Argir" }
    ],
    "name": "Faroe Islands"
  },
  {
    "bordering_countries": ["China", "Kazakhstan", "Tajikistan", "Uzbekistan"],
    "continent": "Asia",
    "country_center": { "latitude": 41.20438, "longitude": 74.766098 },
    "hemisphere": "Northern Hemisphere",
    "largest_cities": [
      { "latitude": 42.8746, "longitude": 74.5698, "name": "Bishkek" },
      { "latitude": 40.5394, "longitude": 72.808, "name": "Osh" },
      { "latitude": 40.9364, "longitude": 73.001, "name": "Jalal-Abad" }
    ],
    "name": "Kyrgyzstan"
  },
  {
    "bordering_countries": [
      "Czech Republic",
      "Poland",
      "Ukraine",
      "Hungary",
      "Austria"
    ],
    "continent": "Europe",
    "country_center": { "latitude": 48.669026, "longitude": 19.699024 },
    "hemisphere": "Northern Hemisphere",
    "largest_cities": [
      { "latitude": 48.1486, "longitude": 17.1077, "name": "Bratislava" },
      { "latitude": 48.7164, "longitude": 21.2611, "name": "Košice" },
      { "latitude": 49.001, "longitude": 21.2406, "name": "Prešov" }
    ],
    "name": "Slovakia"
  },
  {
    "bordering_countries": [],
    "continent": "Oceania",
    "country_center": { "latitude": -15.376706, "longitude": 166.959158 },
    "hemisphere": "Southern Hemisphere",
    "largest_cities": [
      { "latitude": -17.7333, "longitude": 168.3273, "name": "Port Vila" }
    ],
    "name": "Vanuatu"
  },
  {
    "bordering_countries": [],
    "continent": "Oceania",
    "country_center": { "latitude": -14.270972, "longitude": -170.132217 },
    "hemisphere": "Southern Hemisphere",
    "largest_cities": [
      { "latitude": -14.2766, "longitude": -170.702, "name": "Pago Pago" },
      { "latitude": -14.3356, "longitude": -170.7336, "name": "Tafuna" },
      { "latitude": -14.3537, "longitude": -170.7724, "name": "Leone" }
    ],
    "name": "American Samoa"
  },
  {
    "bordering_countries": ["China", "Russia"],
    "continent": "Asia",
    "country_center": { "latitude": 46.862496, "longitude": 103.846656 },
    "hemisphere": "Northern Hemisphere",
    "largest_cities": [
      { "latitude": 47.9212, "longitude": 106.9186, "name": "Ulaanbaatar" },
      { "latitude": 49.0283, "longitude": 104.0866, "name": "Erdenet" },
      { "latitude": 49.4867, "longitude": 105.9228, "name": "Darhan" }
    ],
    "name": "Mongolia"
  },
  {
    "bordering_countries": ["Saudi Arabia"],
    "continent": "Asia",
    "country_center": { "latitude": 25.354826, "longitude": 51.183884 },
    "hemisphere": "Northern Hemisphere",
    "largest_cities": [
      { "latitude": 25.2854, "longitude": 51.531, "name": "Doha" },
      { "latitude": 25.2919, "longitude": 51.4244, "name": "Al Rayyan" },
      { "latitude": 25.4425, "longitude": 51.4492, "name": "Umm Salal Ali" }
    ],
    "name": "Qatar"
  },
  {
    "bordering_countries": ["Burkina Faso", "Côte d'Ivoire", "Togo"],
    "continent": "Africa",
    "country_center": { "latitude": 7.946527, "longitude": -1.023194 },
    "hemisphere": "Northern Hemisphere",
    "largest_cities": [
      { "latitude": 5.6037, "longitude": -0.187, "name": "Accra" },
      { "latitude": 6.6885, "longitude": -1.6244, "name": "Kumasi" },
      { "latitude": 9.4097, "longitude": -0.835, "name": "Tamale" }
    ],
    "name": "Ghana"
  },
  {
    "bordering_countries": ["Italy"],
    "continent": "Europe",
    "country_center": { "latitude": 43.94236, "longitude": 12.457777 },
    "hemisphere": "Northern Hemisphere",
    "largest_cities": [
      { "latitude": 43.9367, "longitude": 12.4466, "name": "San Marino" }
    ],
    "name": "San Marino"
  },
  {
    "bordering_countries": ["Norway", "Finland"],
    "continent": "Europe",
    "country_center": { "latitude": 60.128161, "longitude": 18.643501 },
    "hemisphere": "Northern Hemisphere",
    "largest_cities": [
      { "latitude": 59.3293, "longitude": 18.0686, "name": "Stockholm" },
      { "latitude": 57.7089, "longitude": 11.9746, "name": "Gothenburg" },
      { "latitude": 55.605, "longitude": 13.0038, "name": "Malmö" }
    ],
    "name": "Sweden"
  },
  {
    "bordering_countries": [
      "Algeria",
      "Burkina Faso",
      "Côte d'Ivoire",
      "Guinea",
      "Mauritania",
      "Niger",
      "Senegal"
    ],
    "continent": "Africa",
    "country_center": { "latitude": 17.570692, "longitude": -3.996166 },
    "hemisphere": "Northern Hemisphere",
    "largest_cities": [
      { "latitude": 12.6392, "longitude": -8.0029, "name": "Bamako" },
      { "latitude": 11.3224, "longitude": -5.6783, "name": "Sikasso" },
      { "latitude": 14.4854, "longitude": -4.1872, "name": "Mopti" }
    ],
    "name": "Mali"
  },
  {
    "bordering_countries": ["China", "Laos", "Cambodia"],
    "continent": "Asia",
    "country_center": { "latitude": 14.058324, "longitude": 108.277199 },
    "hemisphere": "Northern Hemisphere",
    "largest_cities": [
      {
        "latitude": 10.8231,
        "longitude": 106.6297,
        "name": "Ho Chi Minh City"
      },
      { "latitude": 21.0278, "longitude": 105.8342, "name": "Hanoi" },
      { "latitude": 16.0544, "longitude": 108.2022, "name": "Da Nang" }
    ],
    "name": "Vietnam"
  },
  {
    "bordering_countries": [
      "Montenegro",
      "Kosovo",
      "North Macedonia",
      "Greece"
    ],
    "continent": "Europe",
    "country_center": { "latitude": 41.153332, "longitude": 20.168331 },
    "hemisphere": "Northern Hemisphere",
    "largest_cities": [
      { "latitude": 41.3275, "longitude": 19.8187, "name": "Tirana" },
      { "latitude": 41.3244, "longitude": 19.4411, "name": "Durrës" },
      { "latitude": 40.4651, "longitude": 19.4867, "name": "Vlorë" }
    ],
    "name": "Albania"
  },
  {
    "bordering_countries": [
      "Bosnia and Herzegovina",
      "Hungary",
      "Montenegro",
      "Serbia",
      "Slovenia"
    ],
    "continent": "Europe",
    "country_center": { "latitude": 45.1, "longitude": 15.2 },
    "hemisphere": "Northern Hemisphere",
    "largest_cities": [
      { "latitude": 45.815, "longitude": 15.9819, "name": "Zagreb" },
      { "latitude": 43.5081, "longitude": 16.4402, "name": "Split" },
      { "latitude": 45.328, "longitude": 14.4422, "name": "Rijeka" }
    ],
    "name": "Croatia"
  },
  {
    "bordering_countries": [
      "Albania",
      "Bosnia and Herzegovina",
      "Croatia",
      "Kosovo",
      "Serbia"
    ],
    "continent": "Europe",
    "country_center": { "latitude": 42.708678, "longitude": 19.37439 },
    "hemisphere": "Northern Hemisphere",
    "largest_cities": [
      { "latitude": 42.4304, "longitude": 19.2594, "name": "Podgorica" },
      { "latitude": 42.7735, "longitude": 18.9442, "name": "Nikšić" },
      { "latitude": 43.3564, "longitude": 19.3603, "name": "Pljevlja" }
    ],
    "name": "Montenegro"
  },
  {
    "bordering_countries": ["Germany"],
    "continent": "Europe",
    "country_center": { "latitude": 56.26392, "longitude": 9.501785 },
    "hemisphere": "Northern Hemisphere",
    "largest_cities": [
      { "latitude": 55.6761, "longitude": 12.5683, "name": "Copenhagen" },
      { "latitude": 56.1629, "longitude": 10.2039, "name": "Aarhus" },
      { "latitude": 55.4038, "longitude": 10.4024, "name": "Odense" }
    ],
    "name": "Denmark"
  },
  {
    "bordering_countries": [
      "Kenya",
      "Tanzania",
      "Rwanda",
      "Democratic Republic of the Congo",
      "South Sudan"
    ],
    "continent": "Africa",
    "country_center": { "latitude": 1.373333, "longitude": 32.290275 },
    "hemisphere": "Northern Hemisphere",
    "largest_cities": [
      { "latitude": 0.3476, "longitude": 32.5825, "name": "Kampala" }
    ],
    "name": "Uganda"
  },
  {
    "bordering_countries": ["China", "India"],
    "continent": "Asia",
    "country_center": { "latitude": 28.394857, "longitude": 84.124008 },
    "hemisphere": "Northern Hemisphere",
    "largest_cities": [
      { "latitude": 27.7172, "longitude": 85.324, "name": "Kathmandu" },
      { "latitude": 28.2046, "longitude": 83.9856, "name": "Pokhara" },
      { "latitude": 26.455, "longitude": 87.271, "name": "Biratnagar" }
    ],
    "name": "Nepal"
  },
  {
    "bordering_countries": [
      "Mauritania",
      "Mali",
      "Guinea",
      "Guinea-Bissau",
      "The Gambia"
    ],
    "continent": "Africa",
    "country_center": { "latitude": 14.497401, "longitude": -14.452362 },
    "hemisphere": "Northern Hemisphere",
    "largest_cities": [
      { "latitude": 14.7167, "longitude": -17.4677, "name": "Dakar" },
      { "latitude": 14.7208, "longitude": -17.47, "name": "Grand Dakar" },
      { "latitude": 14.7856, "longitude": -16.9264, "name": "Thiès" }
    ],
    "name": "Senegal"
  },
  {
    "bordering_countries": ["East Timor", "Papua New Guinea"],
    "continent": "Asia",
    "country_center": { "latitude": -0.789275, "longitude": 113.921327 },
    "hemisphere": "Southern Hemisphere",
    "largest_cities": [
      { "latitude": -6.2146, "longitude": 106.8451, "name": "Jakarta" },
      { "latitude": -7.2575, "longitude": 112.7521, "name": "Surabaya" },
      { "latitude": -6.9175, "longitude": 107.6191, "name": "Bandung" }
    ],
    "name": "Indonesia"
  },
  {
    "bordering_countries": ["Israel", "Syria"],
    "continent": "Asia",
    "country_center": { "latitude": 33.854721, "longitude": 35.862285 },
    "hemisphere": "Northern Hemisphere",
    "largest_cities": [
      { "latitude": 33.8938, "longitude": 35.5018, "name": "Beirut" },
      { "latitude": 34.4368, "longitude": 35.8494, "name": "Tripoli" },
      { "latitude": 33.563, "longitude": 35.3694, "name": "Sidon" }
    ],
    "name": "Lebanon"
  },
  {
    "bordering_countries": ["South Africa", "Mozambique"],
    "continent": "Africa",
    "country_center": { "latitude": -26.522503, "longitude": 31.465866 },
    "hemisphere": "Southern Hemisphere",
    "largest_cities": [
      { "latitude": -26.495, "longitude": 31.3889, "name": "Manzini" },
      { "latitude": -26.3054, "longitude": 31.1367, "name": "Mbabane" },
      { "latitude": -26.8167, "longitude": 31.9333, "name": "Big Bend" }
    ],
    "name": "Eswatini"
  },
  {
    "bordering_countries": ["Laos", "Thailand", "Vietnam"],
    "continent": "Asia",
    "country_center": { "latitude": 12.565679, "longitude": 104.990963 },
    "hemisphere": "Northern Hemisphere",
    "largest_cities": [
      { "latitude": 11.5564, "longitude": 104.9282, "name": "Phnom Penh" },
      { "latitude": 13.3671, "longitude": 103.8448, "name": "Siem Reap" },
      { "latitude": 13.0957, "longitude": 103.2022, "name": "Battambang" }
    ],
    "name": "Cambodia"
  },
  {
    "bordering_countries": [],
    "continent": "Oceania",
    "country_center": { "latitude": -40.900557, "longitude": 174.885971 },
    "hemisphere": "Southern Hemisphere",
    "largest_cities": [
      { "latitude": -36.8485, "longitude": 174.7633, "name": "Auckland" },
      { "latitude": -41.2865, "longitude": 174.7762, "name": "Wellington" },
      { "latitude": -43.5321, "longitude": 172.6362, "name": "Christchurch" }
    ],
    "name": "New Zealand"
  },
  {
    "bordering_countries": [
      "Austria",
      "Croatia",
      "Romania",
      "Serbia",
      "Slovakia",
      "Slovenia",
      "Ukraine"
    ],
    "continent": "Europe",
    "country_center": { "latitude": 47.162494, "longitude": 19.503304 },
    "hemisphere": "Northern Hemisphere",
    "largest_cities": [
      { "latitude": 47.4979, "longitude": 19.0402, "name": "Budapest" },
      { "latitude": 47.5316, "longitude": 21.6273, "name": "Debrecen" },
      { "latitude": 46.253, "longitude": 20.1414, "name": "Szeged" }
    ],
    "name": "Hungary"
  },
  {
    "bordering_countries": [],
    "continent": "Europe",
    "country_center": { "latitude": 49.214439, "longitude": -2.13125 },
    "hemisphere": "Northern Hemisphere",
    "largest_cities": [
      { "latitude": 49.1833, "longitude": -2.1, "name": "Saint Helier" }
    ],
    "name": "Jersey"
  },
  {
    "bordering_countries": [
      "Belarus",
      "Russia",
      "Moldova",
      "Poland",
      "Slovakia",
      "Hungary",
      "Romania"
    ],
    "continent": "Europe",
    "country_center": { "latitude": 48.379433, "longitude": 31.16558 },
    "hemisphere": "Northern Hemisphere",
    "largest_cities": [
      { "latitude": 50.4501, "longitude": 30.5234, "name": "Kyiv" },
      { "latitude": 49.9935, "longitude": 36.2304, "name": "Kharkiv" },
      { "latitude": 46.4694, "longitude": 30.74, "name": "Odesa" }
    ],
    "name": "Ukraine"
  },
  {
    "bordering_countries": [],
    "continent": "North America",
    "country_center": { "latitude": 18.335765, "longitude": -64.896335 },
    "hemisphere": "Northern Hemisphere",
    "largest_cities": [
      { "latitude": 17.7367, "longitude": -64.748, "name": "Saint Croix" },
      { "latitude": 18.3419, "longitude": -64.9307, "name": "Saint Thomas" },
      { "latitude": 18.3273, "longitude": -64.7391, "name": "Saint John" }
    ],
    "name": "United States Virgin Islands"
  },
  {
    "bordering_countries": [
      "Bangladesh",
      "Bhutan",
      "China",
      "Myanmar",
      "Nepal",
      "Pakistan"
    ],
    "continent": "Asia",
    "country_center": { "latitude": 20.593684, "longitude": 78.96288 },
    "hemisphere": "Northern Hemisphere",
    "largest_cities": [
      { "latitude": 19.076, "longitude": 72.8777, "name": "Mumbai" },
      { "latitude": 28.7041, "longitude": 77.1025, "name": "Delhi" },
      { "latitude": 12.9716, "longitude": 77.5946, "name": "Bangalore" }
    ],
    "name": "India"
  },
  {
    "bordering_countries": [
      "Ethiopia",
      "Somalia",
      "South Sudan",
      "Tanzania",
      "Uganda"
    ],
    "continent": "Africa",
    "country_center": { "latitude": -0.023559, "longitude": 37.906193 },
    "hemisphere": "Southern Hemisphere",
    "largest_cities": [
      { "latitude": -1.2921, "longitude": 36.8219, "name": "Nairobi" },
      { "latitude": -4.0435, "longitude": 39.6682, "name": "Mombasa" },
      { "latitude": -0.3031, "longitude": 36.08, "name": "Nakuru" }
    ],
    "name": "Kenya"
  },
  {
    "bordering_countries": ["Albania", "Serbia", "Bulgaria", "Greece"],
    "continent": "Europe",
    "country_center": { "latitude": 41.608635, "longitude": 21.745275 },
    "hemisphere": "Northern Hemisphere",
    "largest_cities": [
      { "latitude": 41.9973, "longitude": 21.4279, "name": "Skopje" },
      { "latitude": 41.0319, "longitude": 21.3347, "name": "Bitola" },
      { "latitude": 42.1329, "longitude": 21.7146, "name": "Kumanovo" }
    ],
    "name": "North Macedonia"
  },
  {
    "bordering_countries": ["United Kingdom"],
    "continent": "Europe",
    "country_center": { "latitude": 53.41291, "longitude": -8.24389 },
    "hemisphere": "Northern Hemisphere",
    "largest_cities": [
      { "latitude": 53.3498, "longitude": -6.2603, "name": "Dublin" },
      { "latitude": 51.8969, "longitude": -8.4863, "name": "Cork" },
      { "latitude": 52.6638, "longitude": -8.6267, "name": "Limerick" }
    ],
    "name": "Ireland"
  },
  {
    "bordering_countries": ["Haiti"],
    "continent": "North America",
    "country_center": { "latitude": 18.735693, "longitude": -70.162651 },
    "hemisphere": "Northern Hemisphere",
    "largest_cities": [
      { "latitude": 18.4861, "longitude": -69.9312, "name": "Santo Domingo" },
      {
        "latitude": 19.4519,
        "longitude": -70.697,
        "name": "Santiago de los Caballeros"
      },
      { "latitude": 18.4314, "longitude": -68.9704, "name": "La Romana" }
    ],
    "name": "Dominican Republic"
  },
  {
    "bordering_countries": ["Algeria", "Libya"],
    "continent": "Africa",
    "country_center": { "latitude": 33.886917, "longitude": 9.537499 },
    "hemisphere": "Northern Hemisphere",
    "largest_cities": [
      { "latitude": 36.8065, "longitude": 10.1815, "name": "Tunis" }
    ],
    "name": "Tunisia"
  },
  {
    "bordering_countries": [],
    "continent": "Africa",
    "country_center": { "latitude": -21.115141, "longitude": 55.536384 },
    "hemisphere": "Southern Hemisphere",
    "largest_cities": [
      { "latitude": -20.8826, "longitude": 55.4504, "name": "Saint-Denis" },
      { "latitude": -21.0092, "longitude": 55.2708, "name": "Saint-Paul" },
      { "latitude": -21.3419, "longitude": 55.4772, "name": "Saint-Pierre" }
    ],
    "name": "Réunion"
  },
  {
    "bordering_countries": ["Brunei", "Indonesia", "Thailand"],
    "continent": "Asia",
    "country_center": { "latitude": 4.210484, "longitude": 101.975766 },
    "hemisphere": "Northern Hemisphere",
    "largest_cities": [
      { "latitude": 3.139, "longitude": 101.6869, "name": "Kuala Lumpur" },
      { "latitude": 5.4149, "longitude": 100.3298, "name": "George Town" },
      { "latitude": 4.5975, "longitude": 101.0901, "name": "Ipoh" }
    ],
    "name": "Malaysia"
  },
  {
    "bordering_countries": [],
    "continent": "Europe",
    "country_center": { "latitude": 54.236107, "longitude": -4.548056 },
    "hemisphere": "Northern Hemisphere",
    "largest_cities": [
      { "latitude": 54.1504, "longitude": -4.48, "name": "Douglas" },
      { "latitude": 54.2216, "longitude": -4.6984, "name": "Peel" },
      { "latitude": 54.0866, "longitude": -4.7591, "name": "Port Erin" }
    ],
    "name": "Isle of Man"
  },
  {
    "bordering_countries": [
      "Belarus",
      "Czech Republic",
      "Germany",
      "Lithuania",
      "Russia",
      "Slovakia",
      "Ukraine"
    ],
    "continent": "Europe",
    "country_center": { "latitude": 51.919438, "longitude": 19.145136 },
    "hemisphere": "Northern Hemisphere",
    "largest_cities": [
      { "latitude": 52.2297, "longitude": 21.0122, "name": "Warsaw" },
      { "latitude": 50.0647, "longitude": 19.945, "name": "Kraków" },
      { "latitude": 51.7592, "longitude": 19.455, "name": "Łódź" }
    ],
    "name": "Poland"
  },
  {
    "bordering_countries": ["Spain"],
    "continent": "Europe",
    "country_center": { "latitude": 39.399872, "longitude": -8.224454 },
    "hemisphere": "Northern Hemisphere",
    "largest_cities": [
      { "latitude": 38.7223, "longitude": -9.1393, "name": "Lisbon" },
      { "latitude": 41.1579, "longitude": -8.6291, "name": "Porto" },
      { "latitude": 38.7557, "longitude": -9.2252, "name": "Amadora" }
    ],
    "name": "Portugal"
  },
  {
    "bordering_countries": ["Norway", "Sweden", "Russia"],
    "continent": "Europe",
    "country_center": { "latitude": 61.92411, "longitude": 25.748151 },
    "hemisphere": "Northern Hemisphere",
    "largest_cities": [
      { "latitude": 60.1699, "longitude": 24.9384, "name": "Helsinki" },
      { "latitude": 60.2055, "longitude": 24.6559, "name": "Espoo" },
      { "latitude": 61.4981, "longitude": 23.7608, "name": "Tampere" }
    ],
    "name": "Finland"
  },
  {
    "bordering_countries": [
      "Austria",
      "France",
      "San Marino",
      "Slovenia",
      "Switzerland",
      "Vatican City"
    ],
    "continent": "Europe",
    "country_center": { "latitude": 41.87194, "longitude": 12.56738 },
    "hemisphere": "Northern Hemisphere",
    "largest_cities": [
      { "latitude": 41.9028, "longitude": 12.4964, "name": "Rome" },
      { "latitude": 45.4654, "longitude": 9.1859, "name": "Milan" },
      { "latitude": 40.8518, "longitude": 14.2681, "name": "Naples" }
    ],
    "name": "Italy"
  },
  {
    "bordering_countries": ["Egypt", "Jordan", "Lebanon", "Syria"],
    "continent": "Asia",
    "country_center": { "latitude": 31.046051, "longitude": 34.851612 },
    "hemisphere": "Northern Hemisphere",
    "largest_cities": [
      { "latitude": 31.7683, "longitude": 35.2137, "name": "Jerusalem" },
      { "latitude": 32.0853, "longitude": 34.7818, "name": "Tel Aviv" },
      { "latitude": 32.794, "longitude": 34.9896, "name": "Haifa" }
    ],
    "name": "Israel"
  },
  {
    "bordering_countries": ["North Korea"],
    "continent": "Asia",
    "country_center": { "latitude": 35.907757, "longitude": 127.766922 },
    "hemisphere": "Northern Hemisphere",
    "largest_cities": [
      { "latitude": 37.5665, "longitude": 126.978, "name": "Seoul" },
      { "latitude": 35.1796, "longitude": 129.0756, "name": "Busan" },
      { "latitude": 37.4563, "longitude": 126.7052, "name": "Incheon" }
    ],
    "name": "South Korea"
  },
  {
    "bordering_countries": ["Portugal", "France", "Andorra"],
    "continent": "Europe",
    "country_center": { "latitude": 40.463667, "longitude": -3.74922 },
    "hemisphere": "Northern Hemisphere",
    "largest_cities": [
      { "latitude": 40.4168, "longitude": -3.7038, "name": "Madrid" },
      { "latitude": 41.3851, "longitude": 2.1734, "name": "Barcelona" },
      { "latitude": 39.4699, "longitude": -0.3763, "name": "Valencia" }
    ],
    "name": "Spain"
  },
  {
    "bordering_countries": [
      "Czech Republic",
      "Germany",
      "Hungary",
      "Italy",
      "Liechtenstein",
      "Slovakia",
      "Slovenia",
      "Switzerland"
    ],
    "continent": "Europe",
    "country_center": { "latitude": 47.516231, "longitude": 14.550072 },
    "hemisphere": "Northern Hemisphere",
    "largest_cities": [
      { "latitude": 48.2082, "longitude": 16.3738, "name": "Vienna" },
      { "latitude": 47.0707, "longitude": 15.4395, "name": "Graz" },
      { "latitude": 48.3069, "longitude": 14.2858, "name": "Linz" }
    ],
    "name": "Austria"
  },
  {
    "bordering_countries": [
      "Norway",
      "Finland",
      "Estonia",
      "Latvia",
      "Lithuania",
      "Poland",
      "Belarus",
      "Ukraine",
      "Georgia",
      "Azerbaijan",
      "Kazakhstan",
      "China",
      "North Korea",
      "Mongolia"
    ],
    "continent": "Europe/Asia",
    "country_center": { "latitude": 61.52401, "longitude": 105.318756 },
    "hemisphere": "Northern Hemisphere",
    "largest_cities": [
      { "latitude": 55.7558, "longitude": 37.6173, "name": "Moscow" },
      { "latitude": 59.9343, "longitude": 30.3351, "name": "Saint Petersburg" },
      { "latitude": 55.0084, "longitude": 82.9357, "name": "Novosibirsk" }
    ],
    "name": "Russia"
  },
  {
    "bordering_countries": [],
    "continent": "Asia",
    "country_center": { "latitude": 23.69781, "longitude": 120.960515 },
    "hemisphere": "Northern Hemisphere",
    "largest_cities": [
      { "latitude": 25.0111, "longitude": 121.465, "name": "New Taipei" },
      { "latitude": 22.6333, "longitude": 120.2666, "name": "Kaohsiung" },
      { "latitude": 25.0329, "longitude": 121.5654, "name": "Taipei" }
    ],
    "name": "Taiwan"
  },
  {
    "bordering_countries": [
      "Greece",
      "North Macedonia",
      "Romania",
      "Serbia",
      "Turkey"
    ],
    "continent": "Europe",
    "country_center": { "latitude": 42.733883, "longitude": 25.48583 },
    "hemisphere": "Northern Hemisphere",
    "largest_cities": [
      { "latitude": 42.6977, "longitude": 23.3219, "name": "Sofia" },
      { "latitude": 42.1354, "longitude": 24.7453, "name": "Plovdiv" },
      { "latitude": 43.2165, "longitude": 27.901, "name": "Varna" }
    ],
    "name": "Bulgaria"
  },
  {
    "bordering_countries": ["Nicaragua", "Panama"],
    "continent": "North America",
    "country_center": { "latitude": 9.748917, "longitude": -83.753428 },
    "hemisphere": "Northern Hemisphere",
    "largest_cities": [
      { "latitude": 9.9281, "longitude": -84.0907, "name": "San José" },
      { "latitude": 10.0027, "longitude": -83.0846, "name": "Limón" },
      { "latitude": 10.0198, "longitude": -84.211, "name": "Alajuela" }
    ],
    "name": "Costa Rica"
  },
  {
    "bordering_countries": [],
    "continent": "Asia",
    "country_center": { "latitude": 7.873054, "longitude": 80.771797 },
    "hemisphere": "Northern Hemisphere",
    "largest_cities": [
      { "latitude": 6.9271, "longitude": 79.8612, "name": "Colombo" },
      { "latitude": 7.0891, "longitude": 79.9998, "name": "Gampaha" },
      { "latitude": 7.2906, "longitude": 80.6337, "name": "Kandy" }
    ],
    "name": "Sri Lanka"
  },
  {
    "bordering_countries": ["United States", "Belize", "Guatemala"],
    "continent": "North America",
    "country_center": { "latitude": 23.634501, "longitude": -102.552784 },
    "hemisphere": "Northern Hemisphere",
    "largest_cities": [
      { "latitude": 19.4326, "longitude": -99.1332, "name": "Mexico City" },
      { "latitude": 20.6597, "longitude": -103.3496, "name": "Guadalajara" },
      { "latitude": 25.6866, "longitude": -100.3161, "name": "Monterrey" }
    ],
    "name": "Mexico"
  },
  {
    "bordering_countries": ["France", "Spain"],
    "continent": "Europe",
    "country_center": { "latitude": 42.546245, "longitude": 1.601554 },
    "hemisphere": "Northern Hemisphere",
    "largest_cities": [
      { "latitude": 42.5063, "longitude": 1.5218, "name": "Andorra la Vella" },
      {
        "latitude": 42.5075,
        "longitude": 1.5346,
        "name": "Escaldes-Engordany"
      },
      { "latitude": 42.5345, "longitude": 1.5832, "name": "Encamp" }
    ],
    "name": "Andorra"
  },
  {
    "bordering_countries": [
      "Bolivia",
      "Brazil",
      "Chile",
      "Paraguay",
      "Uruguay"
    ],
    "continent": "South America",
    "country_center": { "latitude": -38.416097, "longitude": -63.616672 },
    "hemisphere": "Southern Hemisphere",
    "largest_cities": [
      { "latitude": -34.6037, "longitude": -58.3816, "name": "Buenos Aires" },
      { "latitude": -31.4201, "longitude": -64.1888, "name": "Córdoba" },
      { "latitude": -32.9468, "longitude": -60.6393, "name": "Rosario" }
    ],
    "name": "Argentina"
  },
  {
    "bordering_countries": ["Myanmar", "Laos", "Cambodia", "Malaysia"],
    "continent": "Asia",
    "country_center": { "latitude": 15.870032, "longitude": 100.992541 },
    "hemisphere": "Northern Hemisphere",
    "largest_cities": [
      { "latitude": 13.7563, "longitude": 100.5018, "name": "Bangkok" },
      { "latitude": 13.8623, "longitude": 100.5148, "name": "Nonthaburi" },
      {
        "latitude": 14.9706,
        "longitude": 102.0825,
        "name": "Nakhon Ratchasima"
      }
    ],
    "name": "Thailand"
  },
  {
    "bordering_countries": [],
    "continent": "Europe",
    "country_center": { "latitude": 35.937496, "longitude": 14.375416 },
    "hemisphere": "Northern Hemisphere",
    "largest_cities": [
      { "latitude": 35.8978, "longitude": 14.4611, "name": "Birkirkara" },
      { "latitude": 35.8731, "longitude": 14.4694, "name": "Qormi" },
      { "latitude": 35.9092, "longitude": 14.425, "name": "Mosta" }
    ],
    "name": "Malta"
  },
  {
    "bordering_countries": ["Spain"],
    "continent": "Europe",
    "country_center": { "latitude": 36.137741, "longitude": -5.345374 },
    "hemisphere": "Northern Hemisphere",
    "largest_cities": [
      { "latitude": 36.1447, "longitude": -5.3526, "name": "Gibraltar" }
    ],
    "name": "Gibraltar"
  },
  {
    "bordering_countries": [
      "Germany",
      "Austria",
      "Liechtenstein",
      "Italy",
      "France"
    ],
    "continent": "Europe",
    "country_center": { "latitude": 46.818188, "longitude": 8.227512 },
    "hemisphere": "Northern Hemisphere",
    "largest_cities": [
      { "latitude": 47.3769, "longitude": 8.5417, "name": "Zürich" },
      { "latitude": 46.2044, "longitude": 6.1432, "name": "Geneva" },
      { "latitude": 47.5584, "longitude": 7.5733, "name": "Basel" }
    ],
    "name": "Switzerland"
  },
  {
    "bordering_countries": [],
    "continent": "North America",
    "country_center": { "latitude": 71.706936, "longitude": -42.604303 },
    "hemisphere": "Northern Hemisphere",
    "largest_cities": [
      { "latitude": 64.1836, "longitude": -51.7214, "name": "Nuuk" },
      { "latitude": 66.9515, "longitude": -53.7299, "name": "Sisimiut" },
      { "latitude": 69.2208, "longitude": -51.0986, "name": "Ilulissat" }
    ],
    "name": "Greenland"
  },
  {
    "bordering_countries": ["Namibia", "South Africa", "Zambia", "Zimbabwe"],
    "continent": "Africa",
    "country_center": { "latitude": -22.328474, "longitude": 24.684866 },
    "hemisphere": "Southern Hemisphere",
    "largest_cities": [
      { "latitude": -24.6541, "longitude": 25.9086, "name": "Gaborone" },
      { "latitude": -21.1699, "longitude": 27.5078, "name": "Francistown" },
      { "latitude": -24.4064, "longitude": 25.4952, "name": "Molepolole" }
    ],
    "name": "Botswana"
  },
  {
    "bordering_countries": ["Belize", "Mexico", "Honduras", "El Salvador"],
    "continent": "North America",
    "country_center": { "latitude": 15.783471, "longitude": -90.230759 },
    "hemisphere": "Northern Hemisphere",
    "largest_cities": [
      { "latitude": 14.6248, "longitude": -90.5328, "name": "Guatemala City" },
      { "latitude": 14.6333, "longitude": -90.6064, "name": "Mixco" },
      { "latitude": 14.5323, "longitude": -90.5875, "name": "Villa Nueva" }
    ],
    "name": "Guatemala"
  },
  {
    "bordering_countries": [],
    "continent": "Oceania",
    "country_center": { "latitude": -25.274398, "longitude": 133.775136 },
    "hemisphere": "Southern Hemisphere",
    "largest_cities": [
      { "latitude": -33.8688, "longitude": 151.2093, "name": "Sydney" },
      { "latitude": -37.8136, "longitude": 144.9631, "name": "Melbourne" },
      { "latitude": -27.4698, "longitude": 153.0251, "name": "Brisbane" }
    ],
    "name": "Australia"
  },
  {
    "bordering_countries": ["India", "Myanmar"],
    "continent": "Asia",
    "country_center": { "latitude": 23.684994, "longitude": 90.356331 },
    "hemisphere": "Northern Hemisphere",
    "largest_cities": [
      { "latitude": 23.8103, "longitude": 90.4125, "name": "Dhaka" },
      { "latitude": 22.3569, "longitude": 91.7832, "name": "Chittagong" },
      { "latitude": 22.8456, "longitude": 89.5403, "name": "Khulna" }
    ],
    "name": "Bangladesh"
  },
  {
    "bordering_countries": ["France", "Germany", "Luxembourg", "Netherlands"],
    "continent": "Europe",
    "country_center": { "latitude": 50.503887, "longitude": 4.469936 },
    "hemisphere": "Northern Hemisphere",
    "largest_cities": [
      { "latitude": 50.8503, "longitude": 4.3517, "name": "Brussels" },
      { "latitude": 51.2194, "longitude": 4.4025, "name": "Antwerp" },
      { "latitude": 51.0543, "longitude": 3.7174, "name": "Ghent" }
    ],
    "name": "Belgium"
  },
  {
    "bordering_countries": [],
    "continent": "Asia",
    "country_center": { "latitude": 1.352083, "longitude": 103.819836 },
    "hemisphere": "Northern Hemisphere",
    "largest_cities": [
      { "latitude": 1.2903, "longitude": 103.8518, "name": "Singapore" }
    ],
    "name": "Singapore"
  },
  {
    "bordering_countries": [
      "Myanmar",
      "Cambodia",
      "China",
      "Thailand",
      "Vietnam"
    ],
    "continent": "Asia",
    "country_center": { "latitude": 19.85627, "longitude": 102.495496 },
    "hemisphere": "Northern Hemisphere",
    "largest_cities": [
      { "latitude": 17.9757, "longitude": 102.6331, "name": "Vientiane" },
      { "latitude": 16.5569, "longitude": 104.7501, "name": "Savannakhet" },
      { "latitude": 15.1231, "longitude": 105.8185, "name": "Pakse" }
    ],
    "name": "Laos"
  },
  {
    "bordering_countries": ["Sweden", "Finland", "Russia"],
    "continent": "Europe",
    "country_center": { "latitude": 60.472024, "longitude": 8.468946 },
    "hemisphere": "Northern Hemisphere",
    "largest_cities": [
      { "latitude": 59.9139, "longitude": 10.7522, "name": "Oslo" },
      { "latitude": 60.3913, "longitude": 5.3221, "name": "Bergen" },
      { "latitude": 63.4305, "longitude": 10.3951, "name": "Trondheim" }
    ],
    "name": "Norway"
  },
  {
    "bordering_countries": ["Belgium", "France", "Germany"],
    "continent": "Europe",
    "country_center": { "latitude": 49.815273, "longitude": 6.129583 },
    "hemisphere": "Northern Hemisphere",
    "largest_cities": [
      { "latitude": 49.6116, "longitude": 6.1319, "name": "Luxembourg City" },
      { "latitude": 49.4983, "longitude": 5.9806, "name": "Esch-sur-Alzette" },
      { "latitude": 49.4808, "longitude": 6.087, "name": "Dudelange" }
    ],
    "name": "Luxembourg"
  },
  {
    "bordering_countries": ["Albania", "North Macedonia", "Bulgaria", "Turkey"],
    "continent": "Europe",
    "country_center": { "latitude": 39.074208, "longitude": 21.824312 },
    "hemisphere": "Northern Hemisphere",
    "largest_cities": [
      { "latitude": 37.9838, "longitude": 23.7275, "name": "Athens" },
      { "latitude": 40.6401, "longitude": 22.9444, "name": "Thessaloniki" },
      { "latitude": 38.2466, "longitude": 21.7346, "name": "Patras" }
    ],
    "name": "Greece"
  },
  {
    "bordering_countries": ["Austria", "Italy", "Hungary", "Croatia"],
    "continent": "Europe",
    "country_center": { "latitude": 46.151241, "longitude": 14.995463 },
    "hemisphere": "Northern Hemisphere",
    "largest_cities": [
      { "latitude": 46.0569, "longitude": 14.5058, "name": "Ljubljana" },
      { "latitude": 46.555, "longitude": 15.6456, "name": "Maribor" },
      { "latitude": 46.2395, "longitude": 15.2677, "name": "Celje" }
    ],
    "name": "Slovenia"
  },
  {
    "bordering_countries": ["Israel", "Libya", "Sudan"],
    "continent": "Africa",
    "country_center": { "latitude": 26.820553, "longitude": 30.802498 },
    "hemisphere": "Northern Hemisphere",
    "largest_cities": [
      { "latitude": 30.0444, "longitude": 31.2357, "name": "Cairo" },
      { "latitude": 31.2001, "longitude": 29.9187, "name": "Alexandria" },
      { "latitude": 30.0131, "longitude": 31.2089, "name": "Giza" }
    ],
    "name": "Egypt"
  },
  {
    "bordering_countries": ["France"],
    "continent": "Europe",
    "country_center": { "latitude": 43.750298, "longitude": 7.412841 },
    "hemisphere": "Northern Hemisphere",
    "largest_cities": [
      { "latitude": 43.7396, "longitude": 7.4069, "name": "Monaco" }
    ],
    "name": "Monaco"
  },
  {
    "bordering_countries": ["Ireland"],
    "continent": "Europe",
    "country_center": { "latitude": 55.378051, "longitude": -3.435973 },
    "hemisphere": "Northern Hemisphere",
    "largest_cities": [
      { "latitude": 51.5074, "longitude": -0.1278, "name": "London" },
      { "latitude": 52.4862, "longitude": -1.8904, "name": "Birmingham" },
      { "latitude": 53.4808, "longitude": -2.2426, "name": "Manchester" }
    ],
    "name": "United Kingdom"
  },
  {
    "bordering_countries": [],
    "continent": "Asia",
    "country_center": { "latitude": 12.879721, "longitude": 121.774017 },
    "hemisphere": "Northern Hemisphere",
    "largest_cities": [
      { "latitude": 14.676, "longitude": 121.0437, "name": "Quezon City" },
      { "latitude": 14.5995, "longitude": 120.9842, "name": "Manila" },
      { "latitude": 7.1907, "longitude": 125.4553, "name": "Davao City" }
    ],
    "name": "Philippines"
  },
  {
    "bordering_countries": ["Belarus", "Latvia", "Poland", "Russia"],
    "continent": "Europe",
    "country_center": { "latitude": 55.169438, "longitude": 23.881275 },
    "hemisphere": "Northern Hemisphere",
    "largest_cities": [
      { "latitude": 54.6872, "longitude": 25.2797, "name": "Vilnius" },
      { "latitude": 54.8985, "longitude": 23.9036, "name": "Kaunas" },
      { "latitude": 55.7103, "longitude": 21.1356, "name": "Klaipėda" }
    ],
    "name": "Lithuania"
  },
  {
    "bordering_countries": ["Belgium", "Germany"],
    "continent": "Europe",
    "country_center": { "latitude": 52.132633, "longitude": 5.291266 },
    "hemisphere": "Northern Hemisphere",
    "largest_cities": [
      { "latitude": 52.3676, "longitude": 4.9041, "name": "Amsterdam" },
      { "latitude": 51.9202, "longitude": 4.4818, "name": "Rotterdam" },
      { "latitude": 52.0705, "longitude": 4.3007, "name": "The Hague" }
    ],
    "name": "Netherlands"
  },
  {
    "bordering_countries": ["United States"],
    "continent": "North America",
    "country_center": { "latitude": 56.130366, "longitude": -106.346771 },
    "hemisphere": "Northern Hemisphere",
    "largest_cities": [
      { "latitude": 43.6532, "longitude": -79.3832, "name": "Toronto" },
      { "latitude": 45.5017, "longitude": -73.5673, "name": "Montreal" },
      { "latitude": 49.2827, "longitude": -123.1207, "name": "Vancouver" }
    ],
    "name": "Canada"
  },
  {
    "bordering_countries": ["Benin", "Niger", "Chad", "Cameroon"],
    "continent": "Africa",
    "country_center": { "latitude": 9.081999, "longitude": 8.675277 },
    "hemisphere": "Northern Hemisphere",
    "largest_cities": [
      { "latitude": 6.4551, "longitude": 3.3942, "name": "Lagos" },
      { "latitude": 12.0024, "longitude": 8.5132, "name": "Kano" },
      { "latitude": 7.3775, "longitude": 3.947, "name": "Ibadan" }
    ],
    "name": "Nigeria"
  },
  {
    "bordering_countries": ["Argentina", "Bolivia", "Peru"],
    "continent": "South America",
    "country_center": { "latitude": -35.675147, "longitude": -71.542969 },
    "hemisphere": "Southern Hemisphere",
    "largest_cities": [
      { "latitude": -33.4489, "longitude": -70.6693, "name": "Santiago" },
      { "latitude": -33.0458, "longitude": -71.6197, "name": "Valparaíso" },
      { "latitude": -36.8269, "longitude": -73.0498, "name": "Concepción" }
    ],
    "name": "Chile"
  },
  {
    "bordering_countries": [
      "Latvia",
      "Lithuania",
      "Poland",
      "Russia",
      "Ukraine"
    ],
    "continent": "Europe",
    "country_center": { "latitude": 53.709807, "longitude": 27.953389 },
    "hemisphere": "Northern Hemisphere",
    "largest_cities": [
      { "latitude": 53.9045, "longitude": 27.5615, "name": "Minsk" },
      { "latitude": 52.4308, "longitude": 30.9754, "name": "Homyel" },
      { "latitude": 53.9126, "longitude": 30.3425, "name": "Mahilyow" }
    ],
    "name": "Belarus"
  },
  {
    "bordering_countries": [
      "Hungary",
      "Romania",
      "Bulgaria",
      "North Macedonia",
      "Kosovo",
      "Montenegro",
      "Bosnia and Herzegovina"
    ],
    "continent": "Europe",
    "country_center": { "latitude": 44.016521, "longitude": 21.005859 },
    "hemisphere": "Northern Hemisphere",
    "largest_cities": [
      { "latitude": 44.7872, "longitude": 20.4573, "name": "Belgrade" },
      { "latitude": 45.2671, "longitude": 19.8335, "name": "Novi Sad" },
      { "latitude": 43.3194, "longitude": 21.8963, "name": "Niš" }
    ],
    "name": "Serbia"
  }
]
